pitch:27;roll:2;yaw:8;vgx:0;vgy:0;vgz:0;templ:47;temph:49;tof:67;h:0;bat:70;baro:308.68;time:0;agx:471.00;agy:-29.00;agz:-869.00;\r\n
pitch:27;roll:2;yaw:8;vgx:0;vgy:0;vgz:0;templ:47;temph:49;tof:67;h:0;bat:70;baro:308.46;time:0;agx:478.00;agy:-39.00;agz:-896.00;\r\n
pitch:27;roll:3;yaw:8;vgx:0;vgy:0;vgz:0;templ:47;temph:49;tof:67;h:0;bat:70;baro:308.67;time:0;agx:463.00;agy:-33.00;agz:-879.00;\r\n
pitch:26;roll:3;yaw:8;vgx:0;vgy:0;vgz:0;templ:47;temph:49;tof:66;h:0;bat:70;baro:308.63;time:0;agx:457.00;agy:-37.00;agz:-912.00;\r\n
pitch:26;roll:2;yaw:8;vgx:0;vgy:0;vgz:0;templ:47;temph:49;tof:66;h:0;bat:70;baro:308.52;time:0;agx:426.00;agy:-39.00;agz:-920.00;\r\n
pitch:26;roll:2;yaw:8;vgx:0;vgy:0;vgz:0;templ:47;temph:49;tof:66;h:0;bat:70;baro:308.66;time:0;agx:441.00;agy:-53.00;agz:-913.00;\r\n
pitch:22;roll:1;yaw:8;vgx:0;vgy:0;vgz:0;templ:47;temph:49;tof:63;h:0;bat:70;baro:308.67;time:0;agx:450.00;agy:-30.00;agz:-949.00;\r\n
pitch:13;roll:1;yaw:8;vgx:0;vgy:0;vgz:0;templ:47;temph:49;tof:61;h:0;bat:70;baro:308.36;time:0;agx:369.00;agy:36.00;agz:-927.00;\r\n
pitch:4;roll:0;yaw:8;vgx:0;vgy:0;vgz:0;templ:47;temph:49;tof:61;h:0;bat:70;baro:308.36;time:0;agx:154.00;agy:-40.00;agz:-1013.00;\r\n
pitch:-2;roll:0;yaw:7;vgx:0;vgy:0;vgz:0;templ:47;temph:49;tof:60;h:0;bat:70;baro:308.52;time:0;agx:-36.00;agy:6.00;agz:-996.00;\r\n
pitch:-9;roll:0;yaw:7;vgx:0;vgy:0;vgz:0;templ:47;temph:49;tof:30;h:0;bat:70;baro:308.84;time:0;agx:-126.00;agy:9.00;agz:-996.00;\r\n
pitch:-15;roll:0;yaw:7;vgx:0;vgy:0;vgz:0;templ:47;temph:49;tof:30;h:0;bat:70;baro:308.66;time:0;agx:-284.00;agy:55.00;agz:-1033.00;\r\n
pitch:-19;roll:0;yaw:7;vgx:0;vgy:0;vgz:0;templ:48;temph:50;tof:30;h:0;bat:70;baro:308.72;time:0;agx:-352.00;agy:58.00;agz:-971.00;\r\n
pitch:-22;roll:-1;yaw:7;vgx:0;vgy:0;vgz:0;templ:48;temph:50;tof:30;h:0;bat:70;baro:308.64;time:0;agx:-419.00;agy:4.00;agz:-952.00;\r\n
pitch:-25;roll:-1;yaw:7;vgx:0;vgy:0;vgz:0;templ:48;temph:50;tof:30;h:0;bat:70;baro:308.43;time:0;agx:-407.00;agy:-30.00;agz:-866.00;\r\n
pitch:-27;roll:-1;yaw:7;vgx:0;vgy:0;vgz:0;templ:48;temph:50;tof:30;h:0;bat:70;baro:308.57;time:0;agx:-508.00;agy:-7.00;agz:-929.00;\r\n
pitch:-29;roll:-1;yaw:7;vgx:0;vgy:0;vgz:0;templ:48;temph:50;tof:30;h:0;bat:70;baro:308.63;time:0;agx:-453.00;agy:20.00;agz:-836.00;\r\n
pitch:-30;roll:-1;yaw:7;vgx:0;vgy:0;vgz:0;templ:48;temph:50;tof:30;h:0;bat:70;baro:308.72;time:0;agx:-442.00;agy:31.00;agz:-818.00;\r\n
pitch:-30;roll:-1;yaw:7;vgx:0;vgy:0;vgz:0;templ:48;temph:50;tof:30;h:0;bat:70;baro:308.62;time:0;agx:-461.00;agy:24.00;agz:-827.00;\r\n
pitch:-29;roll:-1;yaw:7;vgx:0;vgy:0;vgz:0;templ:48;temph:50;tof:30;h:0;bat:70;baro:308.35;time:0;agx:-538.00;agy:47.00;agz:-916.00;\r\n
pitch:-29;roll:-1;yaw:7;vgx:0;vgy:0;vgz:0;templ:48;temph:50;tof:30;h:0;bat:70;baro:308.44;time:0;agx:-519.00;agy:47.00;agz:-875.00;\r\n
pitch:-29;roll:-1;yaw:7;vgx:0;vgy:0;vgz:0;templ:48;temph:50;tof:30;h:0;bat:70;baro:308.49;time:0;agx:-521.00;agy:47.00;agz:-895.00;\r\n
pitch:-29;roll:-1;yaw:7;vgx:0;vgy:0;vgz:0;templ:47;temph:49;tof:30;h:0;bat:70;baro:308.58;time:0;agx:-499.00;agy:1.00;agz:-858.00;\r\n
pitch:-29;roll:-1;yaw:7;vgx:0;vgy:0;vgz:0;templ:47;temph:49;tof:30;h:0;bat:70;baro:308.68;time:0;agx:-494.00;agy:22.00;agz:-844.00;\r\n
pitch:-29;roll:-1;yaw:7;vgx:0;vgy:0;vgz:0;templ:47;temph:49;tof:30;h:0;bat:70;baro:308.47;time:0;agx:-504.00;agy:15.00;agz:-862.00;\r\n
pitch:-29;roll:-1;yaw:7;vgx:0;vgy:0;vgz:0;templ:47;temph:49;tof:30;h:0;bat:70;baro:308.60;time:0;agx:-498.00;agy:16.00;agz:-870.00;\r\n
pitch:-29;roll:-1;yaw:7;vgx:0;vgy:0;vgz:0;templ:47;temph:49;tof:30;h:0;bat:70;baro:308.50;time:0;agx:-526.00;agy:34.00;agz:-889.00;\r\n
pitch:-29;roll:-1;yaw:7;vgx:0;vgy:0;vgz:0;templ:47;temph:49;tof:30;h:0;bat:70;baro:308.59;time:0;agx:-488.00;agy:32.00;agz:-852.00;\r\n
pitch:-29;roll:-1;yaw:7;vgx:0;vgy:0;vgz:0;templ:47;temph:49;tof:30;h:0;bat:70;baro:308.43;time:0;agx:-519.00;agy:23.00;agz:-882.00;\r\n
pitch:-30;roll:-1;yaw:7;vgx:0;vgy:0;vgz:0;templ:47;temph:49;tof:30;h:0;bat:70;baro:308.51;time:0;agx:-497.00;agy:37.00;agz:-857.00;\r\n
pitch:-30;roll:-1;yaw:7;vgx:0;vgy:0;vgz:0;templ:47;temph:49;tof:30;h:0;bat:70;baro:308.25;time:0;agx:-526.00;agy:44.00;agz:-880.00;\r\n
pitch:-30;roll:-1;yaw:7;vgx:0;vgy:0;vgz:0;templ:47;temph:49;tof:30;h:0;bat:70;baro:308.38;time:0;agx:-516.00;agy:35.00;agz:-879.00;\r\n
pitch:-30;roll:-1;yaw:7;vgx:0;vgy:0;vgz:0;templ:47;temph:50;tof:30;h:0;bat:70;baro:308.47;time:0;agx:-511.00;agy:38.00;agz:-875.00;\r\n
pitch:-29;roll:-2;yaw:7;vgx:0;vgy:0;vgz:0;templ:47;temph:50;tof:30;h:0;bat:70;baro:308.63;time:0;agx:-483.00;agy:50.00;agz:-853.00;\r\n
pitch:-29;roll:-2;yaw:7;vgx:0;vgy:0;vgz:0;templ:47;temph:50;tof:30;h:0;bat:70;baro:308.41;time:0;agx:-515.00;agy:29.00;agz:-879.00;\r\n
pitch:-32;roll:-2;yaw:7;vgx:0;vgy:0;vgz:0;templ:47;temph:50;tof:30;h:0;bat:70;baro:308.35;time:0;agx:-618.00;agy:47.00;agz:-977.00;\r\n
pitch:-41;roll:-3;yaw:7;vgx:0;vgy:0;vgz:-1;templ:47;temph:50;tof:30;h:0;bat:70;baro:308.62;time:0;agx:-510.00;agy:65.00;agz:-649.00;\r\n
pitch:-46;roll:-5;yaw:10;vgx:0;vgy:0;vgz:0;templ:47;temph:50;tof:30;h:0;bat:70;baro:308.41;time:0;agx:-697.00;agy:26.00;agz:-656.00;\r\n
pitch:-51;roll:-6;yaw:10;vgx:0;vgy:0;vgz:0;templ:47;temph:50;tof:36;h:0;bat:70;baro:308.37;time:0;agx:-769.00;agy:112.00;agz:-628.00;\r\n
pitch:-55;roll:-6;yaw:10;vgx:0;vgy:0;vgz:0;templ:47;temph:50;tof:45;h:0;bat:70;baro:308.78;time:0;agx:-790.00;agy:66.00;agz:-550.00;\r\n
pitch:-58;roll:-7;yaw:12;vgx:0;vgy:0;vgz:0;templ:47;temph:50;tof:51;h:0;bat:70;baro:308.39;time:0;agx:-909.00;agy:86.00;agz:-593.00;\r\n
pitch:-61;roll:-7;yaw:12;vgx:0;vgy:0;vgz:0;templ:47;temph:50;tof:55;h:0;bat:70;baro:308.45;time:0;agx:-917.00;agy:65.00;agz:-522.00;\r\n
pitch:-64;roll:-10;yaw:15;vgx:0;vgy:0;vgz:0;templ:47;temph:50;tof:63;h:0;bat:70;baro:308.16;time:0;agx:-904.00;agy:69.00;agz:-434.00;\r\n
pitch:-68;roll:-14;yaw:19;vgx:0;vgy:0;vgz:0;templ:47;temph:50;tof:79;h:0;bat:70;baro:308.61;time:0;agx:-910.00;agy:117.00;agz:-347.00;\r\n
pitch:-70;roll:-10;yaw:15;vgx:0;vgy:0;vgz:0;templ:47;temph:50;tof:99;h:0;bat:70;baro:308.36;time:0;agx:-975.00;agy:55.00;agz:-360.00;\r\n
pitch:-72;roll:-9;yaw:15;vgx:0;vgy:0;vgz:0;templ:47;temph:50;tof:133;h:0;bat:70;baro:308.61;time:0;agx:-929.00;agy:81.00;agz:-288.00;\r\n
pitch:-72;roll:-9;yaw:14;vgx:0;vgy:0;vgz:0;templ:47;temph:50;tof:149;h:0;bat:70;baro:308.47;time:0;agx:-946.00;agy:80.00;agz:-287.00;\r\n
pitch:-72;roll:-8;yaw:13;vgx:0;vgy:0;vgz:0;templ:47;temph:50;tof:155;h:0;bat:70;baro:308.74;time:0;agx:-949.00;agy:45.00;agz:-280.00;\r\n
pitch:-73;roll:-7;yaw:12;vgx:0;vgy:0;vgz:0;templ:47;temph:50;tof:161;h:0;bat:70;baro:308.45;time:0;agx:-966.00;agy:67.00;agz:-304.00;\r\n
pitch:-73;roll:-7;yaw:12;vgx:0;vgy:0;vgz:0;templ:47;temph:50;tof:165;h:0;bat:70;baro:308.54;time:0;agx:-978.00;agy:27.00;agz:-307.00;\r\n
pitch:-72;roll:-7;yaw:11;vgx:0;vgy:0;vgz:0;templ:47;temph:50;tof:145;h:0;bat:70;baro:308.55;time:0;agx:-965.00;agy:40.00;agz:-301.00;\r\n
pitch:-70;roll:-6;yaw:10;vgx:0;vgy:0;vgz:0;templ:47;temph:50;tof:84;h:0;bat:70;baro:308.51;time:0;agx:-853.00;agy:50.00;agz:-247.00;\r\n
pitch:-61;roll:-5;yaw:9;vgx:0;vgy:0;vgz:0;templ:48;temph:50;tof:51;h:0;bat:70;baro:308.43;time:0;agx:-912.00;agy:102.00;agz:-527.00;\r\n
pitch:-54;roll:-3;yaw:7;vgx:0;vgy:0;vgz:0;templ:48;temph:50;tof:41;h:0;bat:70;baro:308.67;time:0;agx:-908.00;agy:83.00;agz:-642.00;\r\n
pitch:-47;roll:-3;yaw:6;vgx:0;vgy:0;vgz:0;templ:48;temph:50;tof:34;h:0;bat:70;baro:308.05;time:0;agx:-813.00;agy:10.00;agz:-728.00;\r\n
pitch:-40;roll:-6;yaw:7;vgx:0;vgy:0;vgz:0;templ:48;temph:50;tof:10;h:0;bat:70;baro:308.75;time:0;agx:-773.00;agy:67.00;agz:-853.00;\r\n
pitch:-35;roll:-6;yaw:6;vgx:0;vgy:0;vgz:0;templ:48;temph:50;tof:10;h:0;bat:70;baro:308.18;time:0;agx:-579.00;agy:62.00;agz:-801.00;\r\n
pitch:-28;roll:-5;yaw:6;vgx:0;vgy:0;vgz:0;templ:48;temph:50;tof:10;h:0;bat:70;baro:308.54;time:0;agx:-453.00;agy:30.00;agz:-798.00;\r\n
pitch:-21;roll:-4;yaw:5;vgx:0;vgy:0;vgz:0;templ:48;temph:50;tof:10;h:0;bat:70;baro:308.41;time:0;agx:-246.00;agy:91.00;agz:-831.00;\r\n
pitch:-15;roll:-2;yaw:4;vgx:0;vgy:0;vgz:0;templ:48;temph:50;tof:10;h:0;bat:70;baro:308.36;time:0;agx:-149.00;agy:156.00;agz:-878.00;\r\n
pitch:-9;roll:-1;yaw:4;vgx:0;vgy:0;vgz:0;templ:48;temph:50;tof:10;h:0;bat:70;baro:308.40;time:0;agx:-276.00;agy:156.00;agz:-1103.00;\r\n
pitch:-1;roll:-2;yaw:5;vgx:0;vgy:0;vgz:0;templ:48;temph:50;tof:59;h:0;bat:70;baro:308.45;time:0;agx:-149.00;agy:-48.00;agz:-1115.00;\r\n
pitch:3;roll:-2;yaw:5;vgx:0;vgy:0;vgz:0;templ:48;temph:50;tof:60;h:0;bat:70;baro:308.45;time:0;agx:-60.00;agy:-38.00;agz:-1067.00;\r\n
pitch:6;roll:-2;yaw:5;vgx:0;vgy:0;vgz:0;templ:48;temph:50;tof:61;h:0;bat:70;baro:308.47;time:0;agx:158.00;agy:41.00;agz:-893.00;\r\n
pitch:10;roll:-3;yaw:5;vgx:0;vgy:0;vgz:0;templ:48;temph:50;tof:61;h:0;bat:70;baro:308.28;time:0;agx:244.00;agy:134.00;agz:-945.00;\r\n
pitch:16;roll:-3;yaw:4;vgx:0;vgy:0;vgz:0;templ:48;temph:50;tof:61;h:0;bat:70;baro:308.14;time:0;agx:104.00;agy:75.00;agz:-1089.00;\r\n
pitch:20;roll:-3;yaw:5;vgx:0;vgy:0;vgz:1;templ:48;temph:50;tof:63;h:0;bat:70;baro:308.28;time:0;agx:330.00;agy:30.00;agz:-989.00;\r\n
pitch:25;roll:-3;yaw:5;vgx:0;vgy:0;vgz:1;templ:48;temph:50;tof:66;h:0;bat:70;baro:308.38;time:0;agx:406.00;agy:88.00;agz:-924.00;\r\n
pitch:30;roll:-4;yaw:4;vgx:0;vgy:0;vgz:1;templ:48;temph:50;tof:67;h:0;bat:70;baro:307.96;time:0;agx:530.00;agy:125.00;agz:-843.00;\r\n
pitch:35;roll:-4;yaw:4;vgx:0;vgy:0;vgz:0;templ:48;temph:50;tof:64;h:0;bat:70;baro:308.03;time:0;agx:539.00;agy:26.00;agz:-833.00;\r\n
pitch:39;roll:-4;yaw:4;vgx:0;vgy:0;vgz:1;templ:48;temph:50;tof:57;h:0;bat:70;baro:307.97;time:0;agx:605.00;agy:35.00;agz:-816.00;\r\n
pitch:43;roll:-4;yaw:5;vgx:0;vgy:0;vgz:1;templ:48;temph:50;tof:49;h:0;bat:70;baro:308.11;time:0;agx:619.00;agy:75.00;agz:-813.00;\r\n
pitch:45;roll:-3;yaw:5;vgx:0;vgy:0;vgz:1;templ:49;temph:50;tof:46;h:0;bat:70;baro:308.45;time:0;agx:760.00;agy:28.00;agz:-688.00;\r\n
pitch:46;roll:0;yaw:6;vgx:0;vgy:0;vgz:1;templ:49;temph:50;tof:43;h:0;bat:70;baro:308.17;time:0;agx:682.00;agy:0.00;agz:-765.00;\r\n
pitch:46;roll:2;yaw:8;vgx:0;vgy:0;vgz:0;templ:49;temph:50;tof:43;h:0;bat:70;baro:308.28;time:0;agx:705.00;agy:21.00;agz:-723.00;\r\n
pitch:47;roll:3;yaw:8;vgx:0;vgy:0;vgz:0;templ:49;temph:50;tof:41;h:0;bat:70;baro:308.35;time:0;agx:727.00;agy:-29.00;agz:-654.00;\r\n
pitch:49;roll:1;yaw:7;vgx:0;vgy:0;vgz:0;templ:49;temph:50;tof:39;h:0;bat:70;baro:308.51;time:0;agx:727.00;agy:-36.00;agz:-709.00;\r\n
pitch:48;roll:1;yaw:7;vgx:0;vgy:0;vgz:0;templ:49;temph:50;tof:40;h:0;bat:70;baro:308.40;time:0;agx:692.00;agy:-35.00;agz:-789.00;\r\n
pitch:44;roll:2;yaw:8;vgx:0;vgy:0;vgz:0;templ:49;temph:50;tof:47;h:0;bat:70;baro:308.40;time:0;agx:652.00;agy:-29.00;agz:-726.00;\r\n
pitch:37;roll:2;yaw:8;vgx:0;vgy:0;vgz:0;templ:49;temph:50;tof:64;h:0;bat:70;baro:308.46;time:0;agx:726.00;agy:18.00;agz:-651.00;\r\n
pitch:29;roll:2;yaw:7;vgx:0;vgy:0;vgz:0;templ:49;temph:50;tof:67;h:0;bat:70;baro:308.30;time:0;agx:647.00;agy:-12.00;agz:-784.00;\r\n
pitch:21;roll:3;yaw:7;vgx:0;vgy:0;vgz:0;templ:49;temph:50;tof:61;h:0;bat:70;baro:308.31;time:0;agx:433.00;agy:-4.00;agz:-1009.00;\r\n
pitch:13;roll:2;yaw:6;vgx:0;vgy:0;vgz:0;templ:49;temph:52;tof:59;h:0;bat:70;baro:308.45;time:0;agx:92.00;agy:-4.00;agz:-1164.00;\r\n
pitch:6;roll:3;yaw:5;vgx:0;vgy:0;vgz:0;templ:49;temph:52;tof:59;h:0;bat:70;baro:308.72;time:0;agx:-4.00;agy:-127.00;agz:-1069.00;\r\n
pitch:-2;roll:3;yaw:4;vgx:0;vgy:0;vgz:0;templ:49;temph:52;tof:60;h:0;bat:70;baro:308.05;time:0;agx:-48.00;agy:-142.00;agz:-998.00;\r\n
pitch:-9;roll:3;yaw:4;vgx:0;vgy:0;vgz:0;templ:49;temph:52;tof:30;h:0;bat:70;baro:308.45;time:0;agx:-123.00;agy:-142.00;agz:-888.00;\r\n
pitch:-16;roll:3;yaw:4;vgx:0;vgy:0;vgz:0;templ:49;temph:52;tof:10;h:0;bat:70;baro:308.51;time:0;agx:-252.00;agy:-84.00;agz:-935.00;\r\n
pitch:-19;roll:4;yaw:3;vgx:0;vgy:0;vgz:0;templ:49;temph:52;tof:10;h:0;bat:70;baro:308.88;time:0;agx:-275.00;agy:-27.00;agz:-848.00;\r\n
pitch:-16;roll:3;yaw:3;vgx:0;vgy:0;vgz:0;templ:49;temph:52;tof:10;h:0;bat:70;baro:308.30;time:0;agx:-171.00;agy:-17.00;agz:-810.00;\r\n
pitch:0;roll:2;yaw:3;vgx:0;vgy:0;vgz:1;templ:49;temph:52;tof:60;h:0;bat:70;baro:308.35;time:0;agx:-35.00;agy:-1.00;agz:-1087.00;\r\n
pitch:11;roll:-1;yaw:3;vgx:0;vgy:0;vgz:1;templ:49;temph:52;tof:60;h:0;bat:70;baro:308.56;time:0;agx:-104.00;agy:-91.00;agz:-1310.00;\r\n
pitch:11;roll:0;yaw:3;vgx:0;vgy:0;vgz:0;templ:49;temph:52;tof:59;h:0;bat:70;baro:308.31;time:0;agx:222.00;agy:13.00;agz:-898.00;\r\n
pitch:12;roll:0;yaw:3;vgx:0;vgy:0;vgz:0;templ:49;temph:51;tof:59;h:0;bat:70;baro:308.35;time:0;agx:246.00;agy:45.00;agz:-966.00;\r\n
pitch:11;roll:0;yaw:3;vgx:0;vgy:0;vgz:0;templ:49;temph:51;tof:58;h:0;bat:70;baro:308.14;time:0;agx:200.00;agy:15.00;agz:-976.00;\r\n
pitch:11;roll:0;yaw:3;vgx:0;vgy:0;vgz:0;templ:49;temph:51;tof:59;h:0;bat:70;baro:308.45;time:0;agx:179.00;agy:-30.00;agz:-995.00;\r\n